id,Name,Fueltype,Classification,Country,Capacity,lat,lon,Geoposition,File
0,Alfta,Hydro,run-of-river,Sweden,20.0,61.341075,16.006847,"61.341075,16.006847",
1,Balforsens krv,Hydro,run-of-river/reservoir,Sweden,105.0,64.652384,18.4948355,"64.652384,18.4948355",
2,Blasjö,Hydro,run-of-river,Sweden,57.0,59.593787,14.354892,"59.593787,14.354892",
3,Dönje,Hydro,run-of-river,Sweden,40.0,61.389765,16.388557,"61.389765,16.388557",
4,Edensforsen,Hydro,run-of-river,Sweden,60.0,63.690491,16.872475,"63.690491,16.872475",
5,Forsmo,Hydro,run-of-river/reservoir,Sweden,300.0,63.269749,17.204564,"63.269749,17.204564",
6,Grundforsen,Hydro,run-of-river,Sweden,88.0,61.274285,12.852567,"61.274285,12.852567",
7,Gulsele,Hydro,run-of-river/reservoir,Sweden,108.0,63.821222,17.145008,"63.821222,17.145008",
8,Harrsele,Hydro,run-of-river,Sweden,200.0,64.000342,19.566667,"64.000342,19.566667",
9,Harspranget,Hydro,run-of-river/reservoir,Sweden,660.0,66.885835,19.815838,"66.885835,19.815838",
10,Hjälta,Hydro,run-of-river,Sweden,180.0,62.983391,17.866538,"62.983391,17.866538",
11,Hojum,Hydro,run-of-river/reservoir,Sweden,370.0,58.280207,12.278508,"58.280207,12.278508",
12,Jarpströmm,Hydro,run-of-river,Sweden,120.0,63.344498,13.460305,"63.344498,13.460305",
13,Kilforsen,Hydro,run-of-river/reservoir,Sweden,855.0,63.556499,16.662825,"63.556499,16.662825",
14,Klippen,Hydro,run-of-river,Sweden,25.0,56.123701,13.11603,"56.123701,13.11603",
15,Flottarselet korsselbränna,Hydro,reservoir,Sweden,,,,,
16,St raijan korsselbränna,Hydro,run-of-river/reservoir,Sweden,330.0,64.448953,15.5661333333,"64.448953,15.5661333333",
17,Krangede,Hydro,run-of-river/reservoir,Sweden,180.0,63.146633,16.070333,"63.146633,16.070333",
18,Krokströmm,Hydro,run-of-river,Sweden,50.0,65.0233,19.6888,"65.0233,19.6888",
19,Kvistforsen,Hydro,run-of-river,Sweden,130.0,64.744883,20.863433,"64.744883,20.863433",
20,Laforsen,Hydro,run-of-river/reservoir,Sweden,64.0,61.937373,15.521949,"61.937373,15.521949",
21,Langströmm,Hydro,run-of-river,Sweden,40.0,62.106128,14.995905,"62.106128,14.995905",
22,Lasele,Hydro,run-of-river/reservoir,Sweden,248.0,63.555408,16.840305,"63.555408,16.840305",
23,Ligga,Hydro,run-of-river/reservoir,Sweden,340.0,65.586753,22.041857,"65.586753,22.041857",
24,Lossen,Hydro,run-of-river/reservoir,Sweden,124.0,65.795329,22.570443,"65.795329,22.570443",
25,Messaure,Hydro,run-of-river/reservoir,Sweden,480.0,66.683333,20.333333,"66.683333,20.333333",
26,Mittan,Hydro,run-of-river,Sweden,88.0,62.455954,13.197702,"62.455954,13.197702",
27,Mockfjords,Hydro,run-of-river,Sweden,12.0,60.501506,14.964287,"60.501506,14.964287",
28,Norränge kraftverk,Hydro,run-of-river/reservoir,Sweden,80.0,61.489482,16.381977,"61.489482,16.381977",
29,Parteboda,Hydro,run-of-river,Sweden,30.0,62.517539,15.691329,"62.517539,15.691329",
30,Porjus,Hydro,run-of-river/reservoir,Sweden,304.0,66.961944,19.804167,"66.961944,19.804167",
31,Ramsele,Hydro,run-of-river/reservoir,Sweden,300.0,63.541981,16.45496,"63.541981,16.45496",
32,Ritsem,Hydro,run-of-river,Sweden,320.0,67.725763,17.474991,"67.725763,17.474991",
33,Saellsjoe,Hydro,run-of-river,Sweden,106.0,63.237771,13.68504,"63.237771,13.68504",
34,Seitevare,Hydro,run-of-river/reservoir,Sweden,450.0,66.976111,18.578056,"66.976111,18.578056",
35,Stalon,Hydro,run-of-river,Sweden,100.0,64.94545,15.82789,"64.94545,15.82789",
36,Storfinfors,Hydro,run-of-river,Sweden,70.0,63.597386,16.119386,"63.597386,16.119386",
37,Storrnorfors,Hydro,run-of-river,Sweden,375.0,63.8525,20.051667,"63.8525,20.051667",
38,Tasan,Hydro,run-of-river,Sweden,35.0,59.386351,13.569723,"59.386351,13.569723",
39,Torpshammar,Hydro,run-of-river/reservoir,Sweden,172.0,62.49192,16.3470285,"62.49192,16.3470285",
40,Trängslet,Hydro,run-of-river/reservoir,Sweden,490.0,61.384737,13.7354715,"61.384737,13.7354715",
41,Umluspen,Hydro,run-of-river,Sweden,88.0,65.095,17.101667,"65.095,17.101667",
42,Vargforsen,Hydro,run-of-river,Sweden,92.0,65.0233,19.6888,"65.0233,19.6888",
43,Vietas,Hydro,run-of-river/reservoir,Sweden,640.0,67.489867,18.3323335,"67.489867,18.3323335",
44,Juktan,Hydro,pumped storage,Sweden,334.0,64.986262,17.739707,"64.986262,17.739707",
45,Kymmen,Hydro,pumped storage,Sweden,56.0,59.974327,12.757321,"59.974327,12.757321",
46,Letten,Hydro,pumped storage/reservoir,Sweden,108.0,60.711169,12.671745,"60.711169,12.671745",
47,Abelvattnet,Hydro,reservoir,Sweden,4.6,65.545168,14.981899,"65.545168,14.981899",
48,Ajaure,Hydro,reservoir,Sweden,75.0,65.509167,15.625556,"65.509167,15.625556",
49,Akkats,Hydro,reservoir,Sweden,150.0,66.631389,19.819722,"66.631389,19.819722",
50,Älvkarleby,Hydro,reservoir,Sweden,126.0,60.563681,17.44205,"60.563681,17.44205",
51,Anundsjö krv,Hydro,reservoir,Sweden,,,,,
52,Asele,Hydro,reservoir,Sweden,27.0,64.098361,17.306503,"64.098361,17.306503",
53,Asens krv,Hydro,reservoir,Sweden,,61.28048,13.816319,"61.28048,13.816319",
54,Bassalt,Hydro,reservoir,Sweden,,,,,
55,Bastusel,Hydro,reservoir,Sweden,107.0,65.412145,18.657828,"65.412145,18.657828",
56,Batfors,Hydro,reservoir,Sweden,42.0,64.832573,20.223732,"64.832573,20.223732",
57,Bergeforsen,Hydro,reservoir,Sweden,168.0,62.518313,17.382675,"62.518313,17.382675",
58,Bjurfors nedre krv,Hydro,reservoir,Sweden,78.0,,,,
59,Bjurfors Övre krv,Hydro,reservoir,Sweden,,,,,
60,Blybergs kraftverk,Hydro,reservoir,Sweden,15.0,61.146912,14.146147,"61.146912,14.146147",
61,Boden,Hydro,reservoir,Sweden,78.0,65.826949,21.694374,"65.826949,21.694374",
62,Borgadammen,Hydro,reservoir,Sweden,,64.820893,15.023253,"64.820893,15.023253",
63,Bullerforsen,Hydro,reservoir,Sweden,,60.508889,15.436944,"60.508889,15.436944",
64,Dabbsjö,Hydro,reservoir,Sweden,26.0,64.607742,15.465791,"64.607742,15.465791",
65,Degerforsens,Hydro,reservoir,Sweden,63.0,63.684481,17.007345,"63.684481,17.007345",
66,Edsele,Hydro,reservoir,Sweden,60.0,63.356465,16.597823,"63.356465,16.597823",
67,Eggsjö,Hydro,reservoir,Sweden,500.0,,,,
68,Fagerassjö,Hydro,reservoir,Sweden,,60.871975,12.884959,"60.871975,12.884959",
69,Flasjö,Hydro,reservoir,Sweden,,,,,
70,Forshuvudforsen,Hydro,reservoir,Sweden,44.0,60.535278,15.421944,"60.535278,15.421944",
71,Frykfors fryken,Hydro,reservoir,Sweden,,59.363889,13.186111,"59.363889,13.186111",
72,Gallejaur,Hydro,reservoir,Sweden,428.0,65.126453,19.469478,"65.126453,19.469478",
73,Gammelänge,Hydro,reservoir,Sweden,78.0,63.141944,16.161111,"63.141944,16.161111",
74,Gardiken gardikfors,Hydro,reservoir,Sweden,60.0,65.476969,15.856519,"65.476969,15.856519",
75,Gideabacka,Hydro,reservoir,Sweden,,63.331136,19.126693,"63.331136,19.126693",
76,Granfors,Hydro,reservoir,Sweden,40.0,,,,
77,Graninge,Hydro,reservoir,Sweden,1.2,,,,
78,Grundfors,Hydro,reservoir,Sweden,100.0,64.9687,17.54421,"64.9687,17.54421",
79,Grundsjöarna,Hydro,reservoir,Sweden,,,,,
80,Grytfors,Hydro,reservoir,Sweden,37.0,65.295466,19.11352,"65.295466,19.11352",
81,Hackren,Hydro,reservoir,Sweden,,63.184389,13.584363,"63.184389,13.584363",
82,Hällby,Hydro,reservoir,Sweden,168.0,63.879154,17.21992,"63.879154,17.21992",
83,Hällforsens,Hydro,reservoir,Sweden,22.0,64.58337,18.69227,"64.58337,18.69227",
84,Halvfari,Hydro,reservoir,Sweden,24.0,62.41656,13.531137,"62.41656,13.531137",
85,Hammarforsens,Hydro,reservoir,Sweden,85.0,63.112909,16.354573,"63.112909,16.354573",
86,Harrsele,Hydro,reservoir,Sweden,223.0,63.822835,20.266337,"63.822835,20.266337",
87,Hermansboda,Hydro,reservoir,Sweden,12.0,62.5418,15.8434,"62.5418,15.8434",
88,Höljes,Hydro,reservoir,Sweden,130.0,60.950833,12.547222,"60.950833,12.547222",
89,Hölleforsen,Hydro,reservoir,Sweden,140.0,62.950833,16.667778,"62.950833,16.667778",
90,Horkoneryd,Hydro,reservoir,Sweden,2.1,56.507879,15.141241,"56.507879,15.141241",
91,Järkvissle,Hydro,reservoir,Sweden,88.0,62.80183,16.637707,"62.80183,16.637707",
92,Järpströmmens,Hydro,reservoir,Sweden,120.0,63.344498,13.460305,"63.344498,13.460305",
93,Juktans,Hydro,reservoir,Sweden,78.0,65.292975,17.2233,"65.292975,17.2233",
94,Karsefors,Hydro,reservoir,Sweden,31.4,56.501729,13.11362,"56.501729,13.11362",
95,Kattstrupeforsen,Hydro,reservoir,Sweden,56.0,63.326439,14.579856,"63.326439,14.579856",
96,Kinna,Hydro,reservoir,Sweden,,57.509323,12.683843,"57.509323,12.683843",
97,Klavbens,Hydro,reservoir,Sweden,,56.266873,14.550539,"56.266873,14.550539",
98,Klinte,Hydro,reservoir,Sweden,,,,,
99,Knäred nedre,Hydro,reservoir,Sweden,,,,,
100,Knäred Övre,Hydro,reservoir,Sweden,,,,,
101,Krangfors,Hydro,reservoir,Sweden,,,,,
102,Krokströmmen,Hydro,reservoir,Sweden,50.0,65.0233,19.6888,"65.0233,19.6888",
103,Kvarnsveden,Hydro,reservoir,Sweden,,,,,
104,Kvistforsens,Hydro,reservoir,Sweden,130.0,64.744883,20.863433,"64.744883,20.863433",
105,Landafors,Hydro,reservoir,Sweden,,,,,
106,Lanforsens,Hydro,reservoir,Sweden,,60.537344,17.426014,"60.537344,17.426014",
107,Langbjörn,Hydro,reservoir,Sweden,100.0,63.636707,16.797662,"63.636707,16.797662",
108,Langed,Hydro,reservoir,Sweden,5.45,58.924253,12.307601,"58.924253,12.307601",
109,Langhag,Hydro,reservoir,Sweden,,60.617876,17.431799,"60.617876,17.431799",
110,Langströmmen,Hydro,reservoir,Sweden,40.0,62.106128,14.995905,"62.106128,14.995905",
111,Laxede,Hydro,reservoir,Sweden,200.0,66.312241,20.791905,"66.312241,20.791905",
112,Leringsforsen,Hydro,reservoir,Sweden,9.0,62.590859,16.40657,"62.590859,16.40657",
113,Letsi,Hydro,reservoir,Sweden,456.0,66.501626,20.378115,"66.501626,20.378115",
114,Lima,Hydro,reservoir,Sweden,,60.839612,13.409094,"60.839612,13.409094",
115,Ljusne strömmar,Hydro,reservoir,Sweden,14.5,,,,
116,Lofssjö,Hydro,reservoir,Sweden,,,,,
117,Lottefors,Hydro,reservoir,Sweden,13.76,,,,
118,Lööns,Hydro,reservoir,Sweden,,63.747271,15.695559,"63.747271,15.695559",
119,Matfors,Hydro,reservoir,Sweden,21.0,62.291942,17.381985,"62.291942,17.381985",
120,Midskog,Hydro,reservoir,Sweden,150.0,63.242817,15.230605,"63.242817,15.230605",
121,Oldens krv Övre lilla mjölkvattnet,Hydro,reservoir,Sweden,,,,,
122,Mockfjärd,Hydro,reservoir,Sweden,12.0,60.501506,14.964287,"60.501506,14.964287",
123,Moforsens,Hydro,reservoir,Sweden,139.0,63.368333,16.988333,"63.368333,16.988333",
124,Mörsils,Hydro,reservoir,Sweden,40.0,63.349754,13.452623,"63.349754,13.452623",
125,Motala,Hydro,reservoir,Sweden,3.7,58.560479,15.082435,"58.560479,15.082435",
126,äs,Hydro,reservoir,Sweden,19.0,60.175947,16.476576,"60.175947,16.476576",
127,äverede,Hydro,reservoir,Sweden,64.0,63.223555,15.320856,"63.223555,15.320856",
128,Nissaström,Hydro,reservoir,Sweden,11.2,56.841854,13.008626,"56.841854,13.008626",
129,Noppikoski,Hydro,reservoir,Sweden,10.0,61.489883,14.709516,"61.489883,14.709516",
130,Öjeforsen,Hydro,reservoir,Sweden,27.0,62.486721,16.067976,"62.486721,16.067976",
131,Oldens krv Övre oldsjö,Hydro,reservoir,Sweden,,,,,
132,Olidan,Hydro,reservoir,Sweden,220.0,58.275,12.2725,"58.275,12.2725",
133,Parki,Hydro,reservoir,Sweden,20.0,66.830913,18.97472,"66.830913,18.97472",
134,Pengfors krv,Hydro,reservoir,Sweden,51.0,63.921437,19.667553,"63.921437,19.667553",
135,Porsi,Hydro,reservoir,Sweden,280.0,66.428522,20.648053,"66.428522,20.648053",
136,Prästforsens krv,Hydro,reservoir,Sweden,3.0,60.668611,17.076944,"60.668611,17.076944",
137,Randi,Hydro,reservoir,Sweden,86.0,66.706406,19.516481,"66.706406,19.516481",
138,Ransaren,Hydro,reservoir,Sweden,,65.232791,14.975094,"65.232791,14.975094",
139,Rätans krv,Hydro,reservoir,Sweden,60.0,62.480646,14.504099,"62.480646,14.504099",
140,Rebnisjaure rebnis krv,Hydro,reservoir,Sweden,64.0,66.499046,17.107241,"66.499046,17.107241",
141,Rengard,Hydro,reservoir,Sweden,36.0,64.933513,20.046481,"64.933513,20.046481",
142,Rusfors,Hydro,reservoir,Sweden,45.0,64.717559,18.242239,"64.717559,18.242239",
143,Sädvajaur sädva,Hydro,reservoir,Sweden,31.0,66.467003,16.549485,"66.467003,16.549485",
144,Selsfors,Hydro,reservoir,Sweden,61.0,64.221215,20.271177,"64.221215,20.271177",
145,Sikfors,Hydro,reservoir,Sweden,40.0,65.525764,21.183168,"65.525764,21.183168",
146,Sils,Hydro,reservoir,Sweden,12.0,,,,
147,Skagern – gullspang,Hydro,reservoir,Sweden,40.0,58.986325,14.106716,"58.986325,14.106716",
148,Skallbergssjö,Hydro,reservoir,Sweden,,,,,
149,Skallböle,Hydro,reservoir,Sweden,46.0,62.364099,16.962161,"62.364099,16.962161",
150,Skedvi,Hydro,reservoir,Sweden,38.0,60.398171,15.808669,"60.398171,15.808669",
151,Skogaby,Hydro,reservoir,Sweden,,56.530556,13.183333,"56.530556,13.183333",
152,Skymnäs,Hydro,reservoir,Sweden,15.6,,,,
153,Smedjemorasjö,Hydro,reservoir,Sweden,,,,,
154,Solleftea,Hydro,reservoir,Sweden,62.0,63.167911,17.277051,"63.167911,17.277051",
155,Spjutmo,Hydro,reservoir,Sweden,35.0,61.083948,14.318083,"61.083948,14.318083",
156,Stadsforsen,Hydro,reservoir,Sweden,139.0,62.990118,16.65472,"62.990118,16.65472",
157,Stenkullafors,Hydro,reservoir,Sweden,58.0,64.29432,17.246873,"64.29432,17.246873",
158,Stennäs,Hydro,reservoir,Sweden,7.0,,,,
159,Stensele,Hydro,reservoir,Sweden,50.0,65.054381,17.231956,"65.054381,17.231956",
160,Stor foskvattnet,Hydro,reservoir,Sweden,,63.932284,14.527523,"63.932284,14.527523",
161,Stora stensjö,Hydro,reservoir,Sweden,95.0,64.165538,14.599142,"64.165538,14.599142",
162,Storavan bergnäs krv,Hydro,reservoir,Sweden,,,,,
163,Storfinnforsens,Hydro,reservoir,Sweden,112.0,63.597386,16.119386,"63.597386,16.119386",
164,Storjunktadammen,Hydro,reservoir,Sweden,,,,,
165,Stornorrfors,Hydro,reservoir,Sweden,1500.0,63.8525,20.051667,"63.8525,20.051667",
166,Strömmen,Hydro,reservoir,Sweden,,,,,
167,Suorvadammen vietas,Hydro,reservoir,Sweden,,67.521956,18.196317,"67.521956,18.196317",
168,Svartafors,Hydro,reservoir,Sweden,,58.450011,15.491865,"58.450011,15.491865",
169,Svarthalsforsens,Hydro,reservoir,Sweden,80.0,63.028896,16.569358,"63.028896,16.569358",
170,Sveg,Hydro,reservoir,Sweden,,62.00902,14.206621,"62.00902,14.206621",
171,Trangfors,Hydro,reservoir,Sweden,73.0,,,,
172,Traryd,Hydro,reservoir,Sweden,14.4,56.584337,13.756098,"56.584337,13.756098",
173,Tuggen,Hydro,reservoir,Sweden,110.0,64.479423,18.878073,"64.479423,18.878073",
174,Turinge,Hydro,reservoir,Sweden,18.0,,,,
175,Tvärforsen,Hydro,reservoir,Sweden,9.0,,,,
176,Untra,Hydro,reservoir,Sweden,42.0,60.56421,17.439184,"60.56421,17.439184",
177,Vargfors,Hydro,reservoir,Sweden,360.0,65.022723,19.679938,"65.022723,19.679938",
178,Vargö,Hydro,reservoir,Sweden,35.3,58.355556,12.374444,"58.355556,12.374444",
179,ässinkoski,Hydro,reservoir,Sweden,,61.490515,14.712678,"61.490515,14.712678",
180,Viforsens,Hydro,reservoir,Sweden,,62.311094,17.172947,"62.311094,17.172947",
181,Viggeby,Hydro,reservoir,Sweden,1.03,58.469057,16.368458,"58.469057,16.368458",
182,Vittjärv,Hydro,reservoir,Sweden,30.0,65.846755,21.553147,"65.846755,21.553147",
183,Vojmsjö,Hydro,reservoir,Sweden,,,,,
184,Volgsjöfors,Hydro,reservoir,Sweden,20.0,64.307632,15.71261,"64.307632,15.71261",
185,Yngeredsfors,Hydro,reservoir,Sweden,18.8,57.0531,12.778165,"57.0531,12.778165",
186,Abjora,Hydro,run-of-river,Norway,81.0,60.91725,9.379347,"60.91725,9.379347",
187,Alta,Hydro,run-of-river,Norway,100.0,69.72507,23.78191,"69.72507,23.78191",
188,Ana sira,Hydro,run-of-river,Norway,100.0,58.2938,6.45037,"58.2938,6.45037",
189,Ardal,Hydro,run-of-river,Norway,2.7,60.47622,5.77782,"60.47622,5.77782",
190,Aroy,Hydro,run-of-river,Norway,90.0,61.27676,7.15457,"61.27676,7.15457",
191,Askara,Hydro,run-of-river,Norway,40.0,61.81216,5.6624,"61.81216,5.6624",
192,Aura,Hydro,run-of-river,Norway,120.0,62.66478,8.52109,"62.66478,8.52109",
193,Aura,Hydro,run-of-river,Norway,168.0,62.66478,8.52109,"62.66478,8.52109",
194,Bagn,Hydro,run-of-river,Norway,44.0,60.82649,9.54995,"60.82649,9.54995",
195,Balmi,Hydro,run-of-river,Norway,,,,,
196,Bardufoss,Hydro,run-of-river,Norway,30.0,69.04369,18.58967,"69.04369,18.58967",
197,Bjorkasen,Hydro,run-of-river,Norway,4.0,68.331945,16.790221,"68.331945,16.790221",
198,Borgund,Hydro,run-of-river,Norway,160.0,61.05868,7.8192,"61.05868,7.8192",
199,Bratsberg,Hydro,run-of-river,Norway,120.0,63.37295,10.40757,"63.37295,10.40757",
200,Brattset,Hydro,run-of-river,Norway,80.0,62.802448,10.013137,"62.802448,10.013137",
201,Brokke,Hydro,run-of-river,Norway,300.0,59.12563,7.5095,"59.12563,7.5095",
202,Byrte t,Hydro,run-of-river,Norway,20.0,59.49612,7.83322,"59.49612,7.83322",
203,Daja,Hydro,run-of-river,Norway,24.0,67.08824,16.05687,"67.08824,16.05687",
204,Dale,Hydro,run-of-river,Norway,28.0,60.58344,5.81926,"60.58344,5.81926",
205,Dokka,Hydro,run-of-river,Norway,44.0,60.8158,10.12151,"60.8158,10.12151",
206,Driva,Hydro,run-of-river,Norway,140.0,62.62305,8.88949,"62.62305,8.88949",
207,Dynjanfoss,Hydro,run-of-river,Norway,33.0,58.95158,8.39528,"58.95158,8.39528",
208,Fagerli,Hydro,run-of-river,Norway,72.0,67.1193,16.07712,"67.1193,16.07712",
209,Fiskumfoss,Hydro,run-of-river,Norway,39.0,64.540198,12.461974,"64.540198,12.461974",
210,Fjaeremsfoss,Hydro,run-of-river,Norway,27.0,63.32211,10.43658,"63.32211,10.43658",
211,Floerli,Hydro,run-of-river,Norway,160.0,59.015178,6.426101,"59.015178,6.426101",
212,Fortun +,Hydro,run-of-river,Norway,216.0,61.50511,7.70239,"61.50511,7.70239",
213,Fosse,Hydro,run-of-river,Norway,22.0,60.58177,5.88682,"60.58177,5.88682",
214,Glomfjord,Hydro,run-of-river,Norway,20.0,66.79696,14.00106,"66.79696,14.00106",
215,Grönsdal,Hydro,run-of-river,Norway,24.0,60.4397,5.85949,"60.4397,5.85949",
216,Grytten,Hydro,run-of-river,Norway,143.5,62.5024,7.77184,"62.5024,7.77184",
217,Hakvik,Hydro,run-of-river,Norway,9.0,68.40382,17.42236,"68.40382,17.42236",
218,Harpefoss,Hydro,run-of-river,Norway,92.0,61.58292,9.84108,"61.58292,9.84108",
219,Haverstad,Hydro,run-of-river,Norway,23.0,58.50656,7.41948,"58.50656,7.41948",
220,Hekni,Hydro,run-of-river,Norway,56.0,58.995,7.54729,"58.995,7.54729",
221,Hemsil,Hydro,run-of-river,Norway,70.0,60.81118,8.64382,"60.81118,8.64382",
222,Hjartdola,Hydro,run-of-river,Norway,104.0,59.60456,8.71143,"59.60456,8.71143",
223,Hol,Hydro,run-of-river,Norway,62.0,60.57795,8.40952,"60.57795,8.40952",
224,Holen,Hydro,run-of-river,Norway,327.0,59.34647,7.24939,"59.34647,7.24939",
225,Hovatn,Hydro,run-of-river,Norway,44.0,58.98293,7.66936,"58.98293,7.66936",
226,Hunderfoss,Hydro,run-of-river,Norway,112.0,61.2171,10.43943,"61.2171,10.43943",
227,Hylen,Hydro,run-of-river,Norway,160.0,58.46507,6.54426,"58.46507,6.54426",
228,Jörundland,Hydro,run-of-river,Norway,55.0,58.90642,8.23129,"58.90642,8.23129",
229,Kobbelv,Hydro,run-of-river,Norway,300.0,67.62319,15.59023,"67.62319,15.59023",
230,Kvilldal,Hydro,run-of-river,Norway,1240.0,59.52878,6.6542,"59.52878,6.6542",
231,Langavatn,Hydro,run-of-river,Norway,500.0,66.33696,14.16666,"66.33696,14.16666",
232,Leirdö,Hydro,run-of-river,Norway,100.0,61.43771,7.24323,"61.43771,7.24323",
233,Lomen,Hydro,run-of-river,Norway,54.0,61.13549,8.87932,"61.13549,8.87932",
234,Lomi,Hydro,run-of-river,Norway,120.0,67.12103,16.10224,"67.12103,16.10224",
235,Lyse,Hydro,run-of-river,Norway,90.0,59.05425,6.6266,"59.05425,6.6266",
236,Lyse,Hydro,run-of-river,Norway,80.0,59.05425,6.6266,"59.05425,6.6266",
237,Mar,Hydro,run-of-river,Norway,180.0,59.88463,8.68074,"59.88463,8.68074",
238,Matre,Hydro,run-of-river,Norway,180.0,60.8737,5.59122,"60.8737,5.59122",
239,Mauranger,Hydro,run-of-river,Norway,250.0,60.13162,6.3315,"60.13162,6.3315",
240,Mel,Hydro,run-of-river,Norway,52.0,61.34671,6.55652,"61.34671,6.55652",
241,Mesna,Hydro,run-of-river,Norway,37.5,61.11702,10.47094,"61.11702,10.47094",
242,Mosvik,Hydro,run-of-river,Norway,37.0,63.72654,10.86853,"63.72654,10.86853",
243,Naddvik,Hydro,run-of-river,Norway,100.0,61.18224,7.63551,"61.18224,7.63551",
244,Nedalfoss,Hydro,run-of-river,Norway,25.0,,,,
245,Nore,Hydro,run-of-river,Norway,58.0,60.26742,8.95782,"60.26742,8.95782",
246,Nye osa,Hydro,run-of-river,Norway,90.0,61.24625,11.74254,"61.24625,11.74254",
247,Oksenelvane,Hydro,run-of-river,Norway,26.0,61.84183,5.80134,"61.84183,5.80134",
248,Oksla,Hydro,run-of-river,Norway,240.0,60.1201,6.55664,"60.1201,6.55664",
249,Rendalen,Hydro,run-of-river,Norway,47.0,61.8123,11.12142,"61.8123,11.12142",
250,"Rössaga, lower",Hydro,run-of-river,Norway,240.0,,,,
251,"Rössaga, upper",Hydro,run-of-river,Norway,225.0,,,,
252,Savtso,Hydro,run-of-river,Norway,150.0,69.75,23.733333,"69.75,23.733333",
253,Siso,Hydro,run-of-river,Norway,92.0,67.32504,15.70731,"67.32504,15.70731",
254,Sjönsta,Hydro,run-of-river,Norway,63.0,67.19455,15.70855,"67.19455,15.70855",
255,Skibotn,Hydro,run-of-river,Norway,72.0,69.31533,20.35819,"69.31533,20.35819",
256,Skjomen,Hydro,run-of-river,Norway,200.0,68.20376,17.36071,"68.20376,17.36071",
257,Solbjonnsfjord,Hydro,run-of-river,Norway,8.0,59.961667,5.210278,"59.961667,5.210278",
258,Sorfjord,Hydro,run-of-river,Norway,44.0,68.06446,16.6638,"68.06446,16.6638",
259,Strielva,Hydro,run-of-river,Norway,1.7,68.61086,15.0,"68.61086,15.0",
260,Sundsbarm,Hydro,run-of-river,Norway,200.0,59.49762,8.63427,"59.49762,8.63427",
261,Svartisen,Hydro,run-of-river,Norway,700.0,66.7282,13.91351,"66.7282,13.91351",
262,Svelgen,Hydro,run-of-river,Norway,88.0,61.76876,5.30759,"61.76876,5.30759",
263,Sysenvatn,Hydro,run-of-river,Norway,620.0,60.416667,7.416667,"60.416667,7.416667",
264,Sy sima,Hydro,run-of-river,Norway,1120.0,60.49965,7.14204,"60.49965,7.14204",
265,Tafjord,Hydro,run-of-river,Norway,82.0,62.23118,7.42364,"62.23118,7.42364",
266,Tinfos,Hydro,run-of-river,Norway,38.0,59.56858,9.2645,"59.56858,9.2645",
267,Tjodan,Hydro,run-of-river,Norway,110.0,59.05214,6.6524,"59.05214,6.6524",
268,Tokke,Hydro,run-of-river,Norway,440.0,59.44436,8.03839,"59.44436,8.03839",
269,Tokke,Hydro,run-of-river,Norway,300.0,59.44436,8.03839,"59.44436,8.03839",
270,Tonstad,Hydro,run-of-river,Norway,640.0,58.65924,6.71685,"58.65924,6.71685",
271,Torpa,Hydro,run-of-river,Norway,15.0,60.99609,10.0577,"60.99609,10.0577",
272,Tyin,Hydro,run-of-river,Norway,150.0,61.31018,7.83131,"61.31018,7.83131",
273,Tyin,Hydro,run-of-river,Norway,360.0,61.31018,7.83131,"61.31018,7.83131",
274,Vinstra,Hydro,run-of-river,Norway,176.0,61.48251,9.31276,"61.48251,9.31276",
275,Vinstra,Hydro,run-of-river,Norway,130.0,61.57605,9.79775,"61.57605,9.79775",
276,Vinstra extension,Hydro,run-of-river,Norway,100.0,61.5935,9.756452,"61.5935,9.756452",
277,Ylja,Hydro,run-of-river,Norway,65.0,61.19751,8.38084,"61.19751,8.38084",
278,Aurland,Hydro,pumped storage,Norway,270.0,60.80095,7.56658,"60.80095,7.56658",
279,Brattingfoss,Hydro,pumped storage,Norway,10.7,64.04331,11.08354,"64.04331,11.08354",
280,Breive,Hydro,pumped storage,Norway,,59.34647,7.24939,"59.34647,7.24939",
281,Buavatn,Hydro,pumped storage,Norway,40.0,63.84514,10.68782,"63.84514,10.68782",
282,Duge,Hydro,pumped storage,Norway,200.0,59.11916,6.89335,"59.11916,6.89335",
283,Fossdal,Hydro,pumped storage,Norway,,61.16308,7.75083,"61.16308,7.75083",
284,Herva,Hydro,pumped storage,Norway,33.0,61.56622,7.86239,"61.56622,7.86239",
285,Hjorteland,Hydro,pumped storage,Norway,2.2,59.37483,6.44951,"59.37483,6.44951",
286,Hunnevatn,Hydro,pumped storage,Norway,,58.87932,6.82101,"58.87932,6.82101",
287,Jukla,Hydro,pumped storage,Norway,40.0,60.18911,6.38306,"60.18911,6.38306",
288,Kastdalen,Hydro,pumped storage,Norway,,60.43257,6.41995,"60.43257,6.41995",
289,Mardal,Hydro,pumped storage,Norway,,62.5024,7.77184,"62.5024,7.77184",
290,Monge,Hydro,pumped storage,Norway,,62.5024,7.77184,"62.5024,7.77184",
291,Oljusjoen,Hydro,pumped storage,Norway,50.8,61.00381,8.08482,"61.00381,8.08482",
292,Rolleivstadvatn,Hydro,pumped storage,Norway,,59.2472,8.2139,"59.2472,8.2139",
293,Saurdal,Hydro,pumped storage,Norway,640.0,59.48277,6.67265,"59.48277,6.67265",
294,Skarje,Hydro,pumped storage,Norway,,59.34647,7.24939,"59.34647,7.24939",
295,Skjeggedal,Hydro,pumped storage,Norway,2.6,60.1289,6.63673,"60.1289,6.63673",
296,Stolsdal,Hydro,pumped storage,Norway,17.0,55.31077,6.61508,"55.31077,6.61508",
297,Tevla,Hydro,pumped storage,Norway,41.2,63.39044,11.9106,"63.39044,11.9106",
298,Tjodanpollen,Hydro,pumped storage,Norway,110.0,59.05214,6.6524,"59.05214,6.6524",
299,Tjonna,Hydro,pumped storage,Norway,0.2,60.39614,5.07197,"60.39614,5.07197",
300,Tverrvatn,Hydro,pumped storage,Norway,,60.7419,9.8396,"60.7419,9.8396",
301,Vassli,Hydro,pumped storage,Norway,,62.62305,8.8849,"62.62305,8.8849",
302,Vatn 462,Hydro,pumped storage,Norway,0.3,61.71674,5.23615,"61.71674,5.23615",
303,Viervatn,Hydro,pumped storage,Norway,112.0,61.18224,7.63551,"61.18224,7.63551",
304,Alta,Hydro,reservoir,Norway,150.0,69.72507,23.78191,"69.72507,23.78191",
305,Aura,Hydro,reservoir,Norway,290.0,62.66478,8.52109,"62.66478,8.52109",
306,Aurland,Hydro,reservoir,Norway,840.0,60.855,7.30485,"60.855,7.30485",
307,Aurland,Hydro,reservoir,Norway,270.0,60.80095,7.56658,"60.80095,7.56658",
308,Berdalsvatn,Hydro,reservoir,Norway,5.0,61.258469,7.821691,"61.258469,7.821691",
309,Bleikvass,Hydro,reservoir,Norway,,66.3,14.133333,"66.3,14.133333",
310,Bratsberg,Hydro,reservoir,Norway,124.0,63.37295,10.40757,"63.37295,10.40757",
311,Brattingfoss,Hydro,reservoir,Norway,10.7,64.04331,11.08354,"64.04331,11.08354",
312,Brokke,Hydro,reservoir,Norway,330.0,59.12563,7.5095,"59.12563,7.5095",
313,Byrte,Hydro,reservoir,Norway,20.0,59.49612,7.83322,"59.49612,7.83322",
314,Evanger,Hydro,reservoir,Norway,330.0,60.65624,6.11161,"60.65624,6.11161",
315,Finndola,Hydro,reservoir,Norway,108.0,59.18408,8.05397,"59.18408,8.05397",
316,Fjergen,Hydro,reservoir,Norway,60.0,63.4335474,11.91072464,"63.4335474,11.91072464",
317,Florli,Hydro,reservoir,Norway,80.0,59.01543,6.43283,"59.01543,6.43283",
318,Forresvass,Hydro,reservoir,Norway,,,,,
319,Fortun,Hydro,reservoir,Norway,254.0,61.50511,7.70239,"61.50511,7.70239",
320,Hafslund,Hydro,reservoir,Norway,31.0,59.275,11.12951,"59.275,11.12951",
321,Harpefossen,Hydro,reservoir,Norway,46.0,61.58292,9.84108,"61.58292,9.84108",
322,Hjartdola,Hydro,reservoir,Norway,104.0,59.60456,8.71143,"59.60456,8.71143",
323,Holmvatn,Hydro,reservoir,Norway,350.0,66.31062,13.56354,"66.31062,13.56354",
324,Hunderfossen,Hydro,reservoir,Norway,116.0,61.2171,10.43943,"61.2171,10.43943",
325,Hylen,Hydro,reservoir,Norway,160.0,58.46507,6.54426,"58.46507,6.54426",
326,Katlavatn,Hydro,reservoir,Norway,72.0,60.80479,7.36825,"60.80479,7.36825",
327,Kjosnesfjorden dam,Hydro,reservoir,Norway,84.0,61.51765,6.61536,"61.51765,6.61536",
328,Kjosnesfjorden main dam,Hydro,reservoir,Norway,84.0,61.51765,6.61536,"61.51765,6.61536",
329,Kobbelv,Hydro,reservoir,Norway,300.0,67.62319,15.59023,"67.62319,15.59023",
330,Kvilldal,Hydro,reservoir,Norway,1240.0,59.52878,6.6542,"59.52878,6.6542",
331,Kykkelsrud fossumfoss,Hydro,reservoir,Norway,190.0,59.57996,11.10157,"59.57996,11.10157",
332,Langvatn,Hydro,reservoir,Norway,90.0,66.33696,14.16666,"66.33696,14.16666",
333,Langvatn,Hydro,reservoir,Norway,90.0,66.33696,14.16666,"66.33696,14.16666",
334,Langvatn,Hydro,reservoir,Norway,90.0,66.33696,14.16666,"66.33696,14.16666",
335,Lysebotn,Hydro,reservoir,Norway,210.0,59.05425,6.6266,"59.05425,6.6266",
336,Mar,Hydro,reservoir,Norway,180.0,59.88463,8.68074,"59.88463,8.68074",
337,Matre,Hydro,reservoir,Norway,246.0,60.8737,5.59122,"60.8737,5.59122",
338,Mauranger,Hydro,reservoir,Norway,250.0,60.13162,6.3315,"60.13162,6.3315",
339,Namsvatn,Hydro,reservoir,Norway,16.0,65.01869,13.750086,"65.01869,13.750086",
340,Nea,Hydro,reservoir,Norway,175.0,63.03169,11.68016,"63.03169,11.68016",
341,Nedre vinstra,Hydro,reservoir,Norway,308.0,61.57605,9.79775,"61.57605,9.79775",
342,Nes,Hydro,reservoir,Norway,250.0,60.60453,9.06963,"60.60453,9.06963",
343,New kjerka main dam,Hydro,reservoir,Norway,,69.556705,17.835396,"69.556705,17.835396",
344,"New kjerka , heddersvika",Hydro,reservoir,Norway,,69.556705,17.835396,"69.556705,17.835396",
345,Nore,Hydro,reservoir,Norway,204.0,60.26742,8.95782,"60.26742,8.95782",
346,Nore,Hydro,reservoir,Norway,52.0,60.23845,9.00076,"60.23845,9.00076",
347,Nygards,Hydro,reservoir,Norway,75.0,59.8187296,10.081812,"59.8187296,10.081812",
348,Rana,Hydro,reservoir,Norway,500.0,66.30276,14.26041,"66.30276,14.26041",
349,Raudal,Hydro,reservoir,Norway,,61.906288,7.643396,"61.906288,7.643396",
350,Rembesdalsvatn,Hydro,reservoir,Norway,,60.527277,7.266471,"60.527277,7.266471",
351,Riskallvatn,Hydro,reservoir,Norway,112.0,,,,
352,Rundavatn,Hydro,reservoir,Norway,,60.95561,5.879996,"60.95561,5.879996",
353,Saheim,Hydro,reservoir,Norway,185.0,59.87705,8.59287,"59.87705,8.59287",
354,Sarp,Hydro,reservoir,Norway,80.0,59.27644,11.13373,"59.27644,11.13373",
355,Saurdal,Hydro,reservoir,Norway,640.0,59.48277,6.67265,"59.48277,6.67265",
356,Sildvik,Hydro,reservoir,Norway,72.0,68.40871,17.80107,"68.40871,17.80107",
357,Sima,Hydro,reservoir,Norway,1120.0,60.49965,7.14204,"60.49965,7.14204",
358,Skjomen,Hydro,reservoir,Norway,300.0,68.20376,17.36071,"68.20376,17.36071",
359,Storglamvatn,Hydro,reservoir,Norway,350.0,66.707928,14.149923,"66.707928,14.149923",
360,Storglamvassdammen,Hydro,reservoir,Norway,,66.711457,14.150094,"66.711457,14.150094",
361,Storvas,Hydro,reservoir,Norway,,,,,
362,Storvatn,Hydro,reservoir,Norway,9.0,64.878973,12.105094,"64.878973,12.105094",
363,Styggevatn,Hydro,reservoir,Norway,290.0,61.771028,7.465787,"61.771028,7.465787",
364,Svartisen,Hydro,reservoir,Norway,600.0,66.7282,13.91351,"66.7282,13.91351",
365,Svelgfoss,Hydro,reservoir,Norway,92.0,59.58133,9.25723,"59.58133,9.25723",
366,Tevla,Hydro,reservoir,Norway,50.0,63.39044,11.9106,"63.39044,11.9106",
367,Tjodan,Hydro,reservoir,Norway,110.0,59.05214,6.6524,"59.05214,6.6524",
368,Tokke,Hydro,reservoir,Norway,430.0,59.44436,8.03839,"59.44436,8.03839",
369,Tonstad,Hydro,reservoir,Norway,960.0,58.65924,6.71685,"58.65924,6.71685",
370,Tunnsjodal,Hydro,reservoir,Norway,176.0,64.70334,12.83542,"64.70334,12.83542",
371,Tyin,Hydro,reservoir,Norway,374.0,61.31018,7.83131,"61.31018,7.83131",
372,Tyssedal,Hydro,reservoir,Norway,100.0,60.121403,6.55581,"60.121403,6.55581",
373,Urar,Hydro,reservoir,Norway,154.0,59.443056,7.255,"59.443056,7.255",
374,Vamma,Hydro,reservoir,Norway,215.0,59.542398,11.17033,"59.542398,11.17033",
375,Vestredal,Hydro,reservoir,Norway,,60.728861,7.574185,"60.728861,7.574185",
376,Vinje,Hydro,reservoir,Norway,300.0,59.61669,7.85653,"59.61669,7.85653",
377,Dinorwig,Hydro,Pumped Storage,United Kingdom,1728.0,53.13,-4.11,"53.13,-4.11",energy_storage_exchange
378,Grand'maison dam,Hydro,Pumped Storage,France,1820.0,45.21,6.12,"45.21,6.12",energy_storage_exchange
379,Coo trois ponts,Hydro,Pumped Storage,Belgium,1164.0,50.37,5.87,"50.37,5.87",energy_storage_exchange
380,Edolo,Hydro,Pumped Storage,Italy,1000.0,46.18,10.33,"46.18,10.33",energy_storage_exchange
381,Chiotas entracque,Hydro,Pumped Storage,Italy,1184.0,44.18,7.42,"44.18,7.42",energy_storage_exchange
382,Goldisthal,Hydro,Pumped Storage,Germany,1060.0,50.5,11.17,"50.5,11.17",energy_storage_exchange
383,Reisseck,Hydro,Pumped Storage,Austria,430.0,47.08,13.34,"47.08,13.34",energy_storage_exchange
384,Markersbach,Hydro,Pumped Storage,Germany,1050.0,50.54,12.86,"50.54,12.86",energy_storage_exchange
385,Vianden,Hydro,Pumped Storage,Luxembourg,1096.0,49.93,6.2,"49.93,6.2",energy_storage_exchange
386,Roncovalgrande lago delio,Hydro,Pumped Storage,Italy,1000.0,46.0,8.69,"46.0,8.69",energy_storage_exchange
387,Domenico cimarosa presenzano,Hydro,Pumped Storage,Italy,1000.0,41.38,14.09,"41.38,14.09",energy_storage_exchange
388,Ffestiniog,Hydro,Pumped Storage,United Kingdom,360.0,52.96,-3.93,"52.96,-3.93",energy_storage_exchange
389,Cruachan,Hydro,Pumped Storage,United Kingdom,440.0,56.41,-5.11,"56.41,-5.11",energy_storage_exchange
390,Foyers,Hydro,Pumped Storage,United Kingdom,300.0,57.32,-4.42,"57.32,-4.42",energy_storage_exchange
391,Turlough hill,Hydro,Pumped Storage,Ireland,292.0,53.03,-6.39,"53.03,-6.39",energy_storage_exchange
392,Alqueva,Hydro,Pumped Storage,Portugal,520.0,38.2,-7.5,"38.2,-7.5",energy_storage_exchange
393,Bleiloch,Hydro,Pumped Storage,Germany,80.0,50.52,11.72,"50.52,11.72",energy_storage_exchange
394,Hohenwarte scheme,Hydro,Pumped Storage,Germany,383.0,50.65,11.37,"50.65,11.37",energy_storage_exchange
395,Geesthacht,Hydro,Pumped Storage,Germany,120.0,53.44,10.36,"53.44,10.36",energy_storage_exchange
396,Wendefurth,Hydro,Pumped Storage,Germany,80.0,51.74,10.92,"51.74,10.92",energy_storage_exchange
397,Niederwartha,Hydro,Pumped Storage,Germany,40.0,51.09,13.6,"51.09,13.6",energy_storage_exchange
398,Witznau,Hydro,Pumped Storage,Germany,220.0,47.69,8.25,"47.69,8.25",energy_storage_exchange
399,Wehr,Hydro,Pumped Storage,Germany,910.0,47.64,7.91,"47.64,7.91",energy_storage_exchange
400,Säckingen,Hydro,Pumped Storage,Germany,360.0,47.57,7.95,"47.57,7.95",energy_storage_exchange
401,Waldshut,Hydro,Pumped Storage,Germany,150.0,47.62,8.19,"47.62,8.19",energy_storage_exchange
402,Häusern,Hydro,Pumped Storage,Germany,100.0,47.76,8.19,"47.76,8.19",energy_storage_exchange
403,Kirchentellinsfurt,Hydro,Pumped Storage,Germany,1.3,48.6,9.1,"48.6,9.1",energy_storage_exchange
404,Erzhausen,Hydro,Pumped Storage,Germany,220.0,51.9,9.93,"51.9,9.93",energy_storage_exchange
405,Glems,Hydro,Pumped Storage,Germany,90.0,48.51,9.29,"48.51,9.29",energy_storage_exchange
406,Happurg,Hydro,Pumped Storage,Germany,160.0,49.49,11.47,"49.49,11.47",energy_storage_exchange
407,Herdecke,Hydro,Pumped Storage,Germany,153.0,51.4,7.43,"51.4,7.43",energy_storage_exchange
408,Langenprozelten,Hydro,Pumped Storage,Germany,164.0,50.06,9.63,"50.06,9.63",energy_storage_exchange
409,Leitzachwerk,Hydro,Pumped Storage,Germany,49.0,47.85,11.86,"47.85,11.86",energy_storage_exchange
410,Leitzachwerk,Hydro,Pumped Storage,Germany,49.2,47.85,11.86,"47.85,11.86",energy_storage_exchange
411,Ruselkraftwerke,Hydro,Pumped Storage,Germany,3.5,48.86,13.0,"48.86,13.0",energy_storage_exchange
412,Reisach,Hydro,Pumped Storage,Germany,99.0,49.53,12.29,"49.53,12.29",energy_storage_exchange
413,Rönkhausen,Hydro,Pumped Storage,Germany,140.0,51.17,7.97,"51.17,7.97",energy_storage_exchange
414,Schwarzenbach,Hydro,Pumped Storage,Germany,44.0,48.66,8.33,"48.66,8.33",energy_storage_exchange
415,Sorpesee,Hydro,Pumped Storage,Germany,7.42,51.35,7.97,"51.35,7.97",energy_storage_exchange
416,Tanzmühle,Hydro,Pumped Storage,Germany,35.0,49.55,12.28,"49.55,12.28",energy_storage_exchange
417,Waldeck,Hydro,Pumped Storage,Germany,140.0,51.16,9.06,"51.16,9.06",energy_storage_exchange
418,Waldeck,Hydro,Pumped Storage,Germany,480.0,51.16,9.06,"51.16,9.06",energy_storage_exchange
419,Alrance,Hydro,Pumped Storage,France,11.0,44.1,2.69,"44.1,2.69",energy_storage_exchange
420,Le pouget,Hydro,Pumped Storage,France,445.0,44.06,2.77,"44.06,2.77",energy_storage_exchange
421,Argentat,Hydro,Pumped Storage,France,48.0,45.1,1.95,"45.1,1.95",energy_storage_exchange
422,Montézic,Hydro,Pumped Storage,France,910.0,44.71,2.64,"44.71,2.64",energy_storage_exchange
423,Revin,Hydro,Pumped Storage,France,800.0,49.92,4.6,"49.92,4.6",energy_storage_exchange
424,Super bissorte,Hydro,Pumped Storage,France,748.0,45.18,6.48,"45.18,6.48",energy_storage_exchange
425,Le cheylas,Hydro,Pumped Storage,France,480.0,45.38,5.99,"45.38,5.99",energy_storage_exchange
426,Coche,Hydro,Pumped Storage,France,310.0,45.48,6.53,"45.48,6.53",energy_storage_exchange
427,Rance tidal,Hydro,Pumped Storage,France,240.0,48.62,-2.02,"48.62,-2.02",energy_storage_exchange
428,Lac noir,Hydro,Pumped Storage,France,82.0,48.11,7.1,"48.11,7.1",energy_storage_exchange
429,Plate taille,Hydro,Pumped Storage,Belgium,143.0,50.19,4.38,"50.19,4.38",energy_storage_exchange
430,Feldsee,Hydro,Pumped Storage,Austria,140.0,47.0,13.04,"47.0,13.04",energy_storage_exchange
431,Koralpe,Hydro,Pumped Storage,Austria,50.0,46.64,14.95,"46.64,14.95",energy_storage_exchange
432,Kops,Hydro,Pumped Storage,Austria,525.0,46.99,10.03,"46.99,10.03",energy_storage_exchange
433,Rodundwerk,Hydro,Pumped Storage,Austria,295.0,47.09,9.88,"47.09,9.88",energy_storage_exchange
434,Limberg,Hydro,Pumped Storage,Austria,480.0,47.16,12.71,"47.16,12.71",energy_storage_exchange
435,Oschenik innerfragant,Hydro,Pumped Storage,Austria,108.0,47.14,12.33,"47.14,12.33",energy_storage_exchange
436,_ierny áh,Hydro,Pumped Storage,Slovakia,735.16,49.01,19.93,"49.01,19.93",energy_storage_exchange
437,Dob_iná,Hydro,Pumped Storage,Slovakia,24.0,48.82,20.37,"48.82,20.37",energy_storage_exchange
438,Liptovská mara,Hydro,Pumped Storage,Slovakia,198.0,49.1,19.49,"49.1,19.49",energy_storage_exchange
439,Ru_í,Hydro,Pumped Storage,Slovakia,60.0,48.86,21.09,"48.86,21.09",energy_storage_exchange
440,Solina,Hydro,Pumped Storage,Poland,200.0,49.4,22.46,"49.4,22.46",energy_storage_exchange
441,_arnowiec,Hydro,Pumped Storage,Poland,716.0,54.77,18.05,"54.77,18.05",energy_storage_exchange
442,_ydowo,Hydro,Pumped Storage,Poland,156.0,54.02,16.74,"54.02,16.74",energy_storage_exchange
443,Torrão,Hydro,Pumped Storage,Portugal,140.0,41.1,-8.26,"41.1,-8.26",energy_storage_exchange
444,Estany gento sallente,Hydro,Pumped Storage,Spain,468.0,42.51,1.0,"42.51,1.0",energy_storage_exchange
445,Aguayo,Hydro,Pumped Storage,Spain,360.0,43.09,-4.02,"43.09,-4.02",energy_storage_exchange
446,Aguayo,Hydro,Pumped Storage,Spain,1014.0,43.13,-4.06,"43.13,-4.06",energy_storage_exchange
447,Muela,Hydro,Pumped Storage,Spain,2000.0,39.24,-0.94,"39.24,-0.94",energy_storage_exchange
448,Chaira,Hydro,Pumped Storage,Bulgaria,788.0,42.19,24.33,"42.19,24.33",energy_storage_exchange
449,Belmeken,Hydro,Pumped Storage,Bulgaria,104.0,42.17,23.8,"42.17,23.8",energy_storage_exchange
450,Riedl energy,Hydro,Pumped Storage,Germany,300.0,48.58,13.67,"48.58,13.67",energy_storage_exchange
451,Malta main stage,Hydro,Pumped Storage,Austria,730.0,46.87,13.33,"46.87,13.33",energy_storage_exchange
452,Kaprun upper stage,Hydro,Pumped Storage,Austria,113.0,47.36,12.64,"47.36,12.64",energy_storage_exchange
453,Häusling,Hydro,Pumped Storage,Austria,360.0,47.15,11.97,"47.15,11.97",energy_storage_exchange
454,Roßhag,Hydro,Pumped Storage,Austria,231.0,47.09,11.77,"47.09,11.77",energy_storage_exchange
455,Malta upper stage,Hydro,Pumped Storage,Austria,120.0,47.08,13.34,"47.08,13.34",energy_storage_exchange
456,Kruonis & extension project,Hydro,Pumped Storage,Lithuania,900.0,54.8,24.25,"54.8,24.25",energy_storage_exchange
457,Lünerseewerk,Hydro,Pumped Storage,Austria,232.0,47.05,9.75,"47.05,9.75",energy_storage_exchange
458,Rodundwerk,Hydro,Pumped Storage,Austria,198.0,47.09,9.88,"47.09,9.88",energy_storage_exchange
459,Rifawerk,Hydro,Pumped Storage,Austria,7.0,46.98,10.04,"46.98,10.04",energy_storage_exchange
460,Rellswerk project,Hydro,Pumped Storage,Austria,12.0,47.05,9.75,"47.05,9.75",energy_storage_exchange
461,Campolattaro,Hydro,Pumped Storage,Italy,572.0,41.29,14.74,"41.29,14.74",energy_storage_exchange
462,Venda nova,Hydro,Pumped Storage,Portugal,736.0,41.69,-8.03,"41.69,-8.03",energy_storage_exchange
463,Villarino almendra reversible,Hydro,Pumped Storage,Spain,810.0,41.27,-6.47,"41.27,-6.47",energy_storage_exchange
464,Aldeadávila,Hydro,Pumped Storage,Spain,1139.0,40.94,-5.67,"40.94,-5.67",energy_storage_exchange
465,Av_e,Hydro,Pumped Storage,Slovenia,185.0,46.09,13.67,"46.09,13.67",energy_storage_exchange
466,Lepenica,Hydro,Pumped Storage,Croatia,1.14,45.3,14.71,"45.3,14.71",energy_storage_exchange
467,Fu_ine,Hydro,Pumped Storage,Croatia,4.6,45.3,14.71,"45.3,14.71",energy_storage_exchange
468,Velebit pump,Hydro,Pumped Storage,Croatia,276.0,44.2,15.68,"44.2,15.68",energy_storage_exchange
469,Sfikia,Hydro,Pumped Storage,Greece,315.0,40.39,22.21,"40.39,22.21",energy_storage_exchange
470,Thisavros ______ ________,Hydro,Pumped Storage,Greece,384.0,41.27,24.5,"41.27,24.5",energy_storage_exchange
471,Tajo encantada málaga,Hydro,Pumped Storage,Spain,360.0,36.91,-4.76,"36.91,-4.76",energy_storage_exchange
472,Jukla plants,Hydro,Pumped Storage,Norway,40.0,59.94,6.0,"59.94,6.0",energy_storage_exchange
473,Stølsdal,Hydro,Pumped Storage,Norway,17.0,59.22,6.19,"59.22,6.19",energy_storage_exchange
474,Saurdal,Hydro,Pumped Storage,Norway,640.0,59.5,6.53,"59.5,6.53",energy_storage_exchange
475,Aurland,Hydro,Pumped Storage,Norway,270.0,60.9,7.2,"60.9,7.2",energy_storage_exchange
476,Dychów,Hydro,Pumped Storage,Poland,90.0,51.99,15.06,"51.99,15.06",energy_storage_exchange
477,Niedzica,Hydro,Pumped Storage,Poland,82.8,49.41,20.33,"49.41,20.33",energy_storage_exchange
478,Porabka zar,Hydro,Pumped Storage,Poland,500.0,49.77,19.21,"49.77,19.21",energy_storage_exchange
479,Alto rabagão,Hydro,Pumped Storage,Portugal,68.0,41.74,-7.85,"41.74,-7.85",energy_storage_exchange
480,Aguieira,Hydro,Pumped Storage,Portugal,336.0,40.34,-8.2,"40.34,-8.2",energy_storage_exchange
481,El hierro wind,Hydro,Pumped Storage,Spain,11.3,27.8,-17.92,"27.8,-17.92",energy_storage_exchange
482,Go development demonstration project,Hydro,Pumped Storage,Denmark,0.006,54.92,9.68,"54.92,9.68",energy_storage_exchange
483,Kuhtai psh kühtai,Hydro,Pumped Storage,Austria,289.0,47.25,11.6,"47.25,11.6",energy_storage_exchange
484,Orphey,Hydro,Pumped Storage,Bulgaria,160.0,41.74,24.39,"41.74,24.39",energy_storage_exchange
485,Anapo solarino,Hydro,Pumped Storage,Italy,600.0,37.1,15.12,"37.1,15.12",energy_storage_exchange
486,Bargi,Hydro,Pumped Storage,Italy,330.0,44.13,11.06,"44.13,11.06",energy_storage_exchange
487,Rovina entracque,Hydro,Pumped Storage,Italy,134.0,44.24,7.4,"44.24,7.4",energy_storage_exchange
488,San fiorano,Hydro,Pumped Storage,Italy,568.0,46.06,10.35,"46.06,10.35",energy_storage_exchange
489,Provvidenza,Hydro,Pumped Storage,Italy,156.0,42.56,13.37,"42.56,13.37",energy_storage_exchange
490,Conso,Hydro,Pumped Storage,Spain,228.0,42.14,-7.29,"42.14,-7.29",energy_storage_exchange
491,Gabriel y galan,Hydro,Pumped Storage,Spain,111.0,40.2,-6.16,"40.2,-6.16",energy_storage_exchange
492,Gobantes,Hydro,Pumped Storage,Spain,3.6,36.96,-4.8,"36.96,-4.8",energy_storage_exchange
493,Guijo grandadilla,Hydro,Pumped Storage,Spain,54.0,40.2,-6.16,"40.2,-6.16",energy_storage_exchange
494,Guillena,Hydro,Pumped Storage,Spain,215.0,37.54,-6.06,"37.54,-6.06",energy_storage_exchange
495,Ibó ip,Hydro,Pumped Storage,Spain,84.0,42.72,-0.46,"42.72,-0.46",energy_storage_exchange
496,Moralets llauset lleida huesca,Hydro,Pumped Storage,Spain,219.1,42.58,0.69,"42.58,0.69",energy_storage_exchange
497,Pintado,Hydro,Pumped Storage,Spain,14.0,37.94,-5.78,"37.94,-5.78",energy_storage_exchange
498,Puente bibey,Hydro,Pumped Storage,Spain,315.0,42.31,-7.23,"42.31,-7.23",energy_storage_exchange
499,Tanes,Hydro,Pumped Storage,Spain,133.0,43.25,-5.98,"43.25,-5.98",energy_storage_exchange
500,Torrejon,Hydro,Pumped Storage,Spain,132.0,40.2,-3.8,"40.2,-3.8",energy_storage_exchange
501,Urdiceto,Hydro,Pumped Storage,Spain,7.2,42.63,0.22,"42.63,0.22",energy_storage_exchange
502,Valdencanas,Hydro,Pumped Storage,Spain,225.0,40.23,-2.33,"40.23,-2.33",energy_storage_exchange
503,Ponale riva del garda ledro,Hydro,Pumped Storage,Italy,80.0,45.89,10.84,"45.89,10.84",energy_storage_exchange
504,Campo moro,Hydro,Pumped Storage,Italy,36.5,46.27,9.87,"46.27,9.87",energy_storage_exchange
505,Capriati,Hydro,Pumped Storage,Italy,115.0,41.52,14.13,"41.52,14.13",energy_storage_exchange
506,Fadalto,Hydro,Pumped Storage,Italy,210.0,46.07,12.34,"46.07,12.34",energy_storage_exchange
507,Villa gargnano,Hydro,Pumped Storage,Italy,137.2,45.69,10.66,"45.69,10.66",energy_storage_exchange
508,Gaudalami,Hydro,Pumped Storage,Italy,80.0,37.99,13.29,"37.99,13.29",energy_storage_exchange
509,Pracomune,Hydro,Pumped Storage,Italy,42.0,46.55,11.01,"46.55,11.01",energy_storage_exchange
510,Taloro,Hydro,Pumped Storage,Italy,240.0,40.09,9.16,"40.09,9.16",energy_storage_exchange
511,Marex,Hydro,Pumped Storage,Ireland,1.5,53.74,-9.57,"53.74,-9.57",energy_storage_exchange
512,Frades voith,Hydro,Pumped Storage,Portugal,778.0,39.4,-8.22,"39.4,-8.22",energy_storage_exchange
513,Baixo sabor montante edp,Hydro,Pumped Storage,Portugal,145.0,39.4,-8.22,"39.4,-8.22",energy_storage_exchange
514,Baixo sabor jusante,Hydro,Pumped Storage,Portugal,37.0,39.4,-8.22,"39.4,-8.22",energy_storage_exchange
515,Foz tua,Hydro,Pumped Storage,Portugal,259.0,41.22,-7.42,"41.22,-7.42",energy_storage_exchange
516,Salamonde,Hydro,Pumped Storage,Portugal,211.0,41.69,-8.09,"41.69,-8.09",energy_storage_exchange
517,Frades,Hydro,Pumped Storage,Portugal,191.6,41.69,-8.03,"41.69,-8.03",energy_storage_exchange
518,Vilarinho furnas,Hydro,Pumped Storage,Portugal,125.0,41.76,-8.21,"41.76,-8.21",energy_storage_exchange
519,Pont ventoux susa,Hydro,Pumped Storage,Italy,158.0,45.14,6.97,"45.14,6.97",energy_storage_exchange
520,Amfilochia,Hydro,Pumped Storage,Greece,587.8,38.86,21.17,"38.86,21.17",energy_storage_exchange
521,Amari hybrid project,Hydro,Pumped Storage,Greece,50.0,35.24,24.81,"35.24,24.81",energy_storage_exchange
522,Obervermuntwerk,Hydro,Pumped Storage,Austria,360.0,47.06,9.93,"47.06,9.93",energy_storage_exchange
523,Cardos valley complex montamara,Hydro,Pumped Storage,Spain,90.0,42.64,1.26,"42.64,1.26",energy_storage_exchange
